

{"type": "FeatureCollection", "features": [{"type": "Feature",
  "geometry": {
    "type": "Point",
    "coordinates": [[[[10, 100], [12, 120]]]]
  },
  "properties": {
    "state": "California",
    "city": "San Francisco",
    "name": "Golden Gate Bridge",
    "holc_id": "A1",
    "holc_grade": "A+",
    "neighborhood_id": 123,
    "area_description_data": {
      "1": "Providence",
      "2": "Providence",
      "3": "Random city"
    }
  }
},
  {"type": "Feature",
    "geometry": {
      "type": "Point",
      "coordinates": [[[[9, 99], [88, 110]]]]
    },
    "properties": {
      "state": "California",
      "city": "San Francisco",
      "name": "Golden Gate Bridge",
      "holc_id": "A1",
      "holc_grade": "A+",
      "neighborhood_id": 123,
      "area_description_data": {
        "1": "Providence"
      }
    }
  },
  {"type": "Feature",
    "geometry": {
      "type": "Point",
      "coordinates": [[[[9, 2], [10, 117]]]]
    },
    "properties": {
      "state": "California",
      "city": "San Francisco",
      "name": "Golden Gate Bridge",
      "holc_id": "A1",
      "holc_grade": "A+",
      "neighborhood_id": 123,
      "area_description_data": {
        "1": "Providence"
      }
    }
  },
  {"type": "Feature",
    "geometry": {
      "type": "Point",
      "coordinates": [[[[10, 100], [12, 120]]]]
    },
    "properties": {
      "state": "California",
      "city": "San Francisco",
      "name": "Golden Gate Bridge",
      "holc_id": "A1",
      "holc_grade": "A+",
      "neighborhood_id": 123,
      "area_description_data": {
        "1": "Fair"}}}]}
